{"businesses": [{"id": "OPfgKOm_n-ajUo3qjSEgRg", "alias": "powells-city-of-books-portland-4", "name": "Powell's City of Books", "image_url": "https://s3-media3.fl.yelpcdn.com/bphoto/kjBZ9pgHF0YVhmYCpqasbw/o.jpg", "is_closed": false, "url": "https://www.yelp.com/biz/powells-city-of-books-portland-4?adjust_creative=Rcme9I_ALLj7Y_4HCWl0OQ&utm_campaign=yelp_api_v3&utm_medium=api_v3_business_search&utm_source=Rcme9I_ALLj7Y_4HCWl0OQ", "review_count": 4301, "categories": [{"alias": "bookstores", "title": "Bookstores"}, {"alias": "giftshops", "title": "Gift Shops"}], "rating": 5.0, "coordinates": {"latitude": 45.5231895446777, "longitude": -122.681419372559}, "transactions": [], "price": "$$", "location": {"address1": "1005 W Burnside St", "address2": "", "address3": "", "city": "Portland", "zip_code": "97209", "country": "US", "state": "OR", "display_address": ["1005 W Burnside St", "Portland, OR 97209"]}, "phone": "+15032284651", "display_phone": "(503) 228-4651", "distance": 50.110737408463486}, {"id": "kROFm3FvMs3AQgqmIg93kg", "alias": "kinokuniya-bookstores-portland-portland", "name": "Kinokuniya Bookstores - Portland", "image_url": "https://s3-media3.fl.yelpcdn.com/bphoto/ywuuucBgmLucvfr_Y5xA-A/o.jpg", "is_closed": false, "url": "https://www.yelp.com/biz/kinokuniya-bookstores-portland-portland?adjust_creative=Rcme9I_ALLj7Y_4HCWl0OQ&utm_campaign=yelp_api_v3&utm_medium=api_v3_business_search&utm_source=Rcme9I_ALLj7Y_4HCWl0OQ", "review_count": 24, "categories": [{"alias": "bookstores", "title": "Bookstores"}, {"alias": "giftshops", "title": "Gift Shops"}, {"alias": "stationery", "title": "Cards & Stationery"}], "rating": 4.5, "coordinates": {"latitude": 45.5187306, "longitude": -122.6819433}, "transactions": [], "location": {"address1": "829 SW 9th Ave", "address2": "", "address3": null, "city": "Portland", "zip_code": "97205", "country": "US", "state": "OR", "display_address": ["829 SW 9th Ave", "Portland, OR 97205"]}, "phone": "+15032068331", "display_phone": "(503) 206-8331", "distance": 537.8013783949955}, {"id": "6XqJYzwxir6fwi3Dw65QhQ", "alias": "cult-portland", "name": "CULT.", "image_url": "https://s3-media1.fl.yelpcdn.com/bphoto/NX8jiM28oQUGTHyc-QyoMQ/o.jpg", "is_closed": false, "url": "https://www.yelp.com/biz/cult-portland?adjust_creative=Rcme9I_ALLj7Y_4HCWl0OQ&utm_campaign=yelp_api_v3&utm_medium=api_v3_business_search&utm_source=Rcme9I_ALLj7Y_4HCWl0OQ", "review_count": 7, "categories": [{"alias": "bookstores", "title": "Bookstores"}, {"alias": "toys", "title": "Toy Stores"}, {"alias": "giftshops", "title": "Gift Shops"}], "rating": 5.0, "coordinates": {"latitude": 45.526365, "longitude": -122.683391}, "transactions": [], "location": {"address1": "1204 NW Glisan St", "address2": null, "address3": "", "city": "Portland", "zip_code": "97209", "country": "US", "state": "OR", "display_address": ["1204 NW Glisan St", "Portland, OR 97209"]}, "phone": "+15038772858", "display_phone": "(503) 877-2858", "distance": 351.21856537651036}, {"id": "KgKiSBLtA5WwPdGREaOEiw", "alias": "daedalus-books-portland", "name": "Daedalus Books", "image_url": "https://s3-media4.fl.yelpcdn.com/bphoto/4vVA401OPQjqvXbydc7dNA/o.jpg", "is_closed": false, "url": "https://www.yelp.com/biz/daedalus-books-portland?adjust_creative=Rcme9I_ALLj7Y_4HCWl0OQ&utm_campaign=yelp_api_v3&utm_medium=api_v3_business_search&utm_source=Rcme9I_ALLj7Y_4HCWl0OQ", "review_count": 15, "categories": [{"alias": "bookstores", "title": "Bookstores"}, {"alias": "usedbooks", "title": "Used Bookstore"}], "rating": 4.5, "coordinates": {"latitude": 45.52537, "longitude": -122.69408}, "transactions": [], "price": "$", "location": {"address1": "2074 NW Flanders St", "address2": "", "address3": "", "city": "Portland", "zip_code": "97209", "country": "US", "state": "OR", "display_address": ["2074 NW Flanders St", "Portland, OR 97209"]}, "phone": "+15032747742", "display_phone": "(503) 274-7742", "distance": 1008.3134779427801}, {"id": "-5zKNFxuoPm8L9OQ0LtzvA", "alias": "mudpuddles-toys-and-books-portland", "name": "MudPuddles Toys & Books", "image_url": "https://s3-media1.fl.yelpcdn.com/bphoto/_tjl0inqDyM2ZmnYvJVVtQ/o.jpg", "is_closed": false, "url": "https://www.yelp.com/biz/mudpuddles-toys-and-books-portland?adjust_creative=Rcme9I_ALLj7Y_4HCWl0OQ&utm_campaign=yelp_api_v3&utm_medium=api_v3_business_search&utm_source=Rcme9I_ALLj7Y_4HCWl0OQ", "review_count": 32, "categories": [{"alias": "toys", "title": "Toy Stores"}, {"alias": "bookstores", "title": "Bookstores"}, {"alias": "tabletopgames", "title": "Tabletop Games"}], "rating": 4.5, "coordinates": {"latitude": 45.52927, "longitude": -122.69895}, "transactions": [], "price": "$$", "location": {"address1": "2305 NW Kearney St", "address2": "", "address3": "", "city": "Portland", "zip_code": "97210", "country": "US", "state": "OR", "display_address": ["2305 NW Kearney St", "Portland, OR 97210"]}, "phone": "+15032245586", "display_phone": "(503) 224-5586", "distance": 1520.5930150681204}, {"id": "yLATnsDK4UKLVKyy56ac0g", "alias": "mother-foucaults-bookshop-portland", "name": "Mother Foucault's Bookshop", "image_url": "https://s3-media3.fl.yelpcdn.com/bphoto/7KyDIaYNPi5qlW1oxkyU9g/o.jpg", "is_closed": false, "url": "https://www.yelp.com/biz/mother-foucaults-bookshop-portland?adjust_creative=Rcme9I_ALLj7Y_4HCWl0OQ&utm_campaign=yelp_api_v3&utm_medium=api_v3_business_search&utm_source=Rcme9I_ALLj7Y_4HCWl0OQ", "review_count": 30, "categories": [{"alias": "bookstores", "title": "Bookstores"}], "rating": 4.5, "coordinates": {"latitude": 45.51746, "longitude": -122.66005}, "transactions": [], "price": "$", "location": {"address1": "523 SE Morrison St", "address2": "", "address3": "", "city": "Portland", "zip_code": "97214", "country": "US", "state": "OR", "display_address": ["523 SE Morrison St", "Portland, OR 97214"]}, "phone": "+15032362665", "display_phone": "(503) 236-2665", "distance": 1785.1460522559835}, {"id": "YtsrvleoU8bqyScyP9_Tew", "alias": "osu-beaver-store-portland", "name": "OSU Beaver Store", "image_url": "https://s3-media1.fl.yelpcdn.com/bphoto/tzBt9Z0e3WU40750OT7z7Q/o.jpg", "is_closed": false, "url": "https://www.yelp.com/biz/osu-beaver-store-portland?adjust_creative=Rcme9I_ALLj7Y_4HCWl0OQ&utm_campaign=yelp_api_v3&utm_medium=api_v3_business_search&utm_source=Rcme9I_ALLj7Y_4HCWl0OQ", "review_count": 11, "categories": [{"alias": "sportswear", "title": "Sports Wear"}, {"alias": "bookstores", "title": "Bookstores"}], "rating": 4.5, "coordinates": {"latitude": 45.51985, "longitude": -122.67779}, "transactions": [], "price": "$$$", "location": {"address1": "538 SW 6th Ave", "address2": "", "address3": "", "city": "Portland", "zip_code": "97204", "country": "US", "state": "OR", "display_address": ["538 SW 6th Ave", "Portland, OR 97204"]}, "phone": "+15035252678", "display_phone": "(503) 525-2678", "distance": 491.51982952235454}, {"id": "LALb1wOrPz2LxZTm2emi7Q", "alias": "portland-state-bookstore-portland", "name": "Portland State Bookstore", "image_url": "https://s3-media2.fl.yelpcdn.com/bphoto/nQb7nclPfAZN55RK2NEakw/o.jpg", "is_closed": false, "url": "https://www.yelp.com/biz/portland-state-bookstore-portland?adjust_creative=Rcme9I_ALLj7Y_4HCWl0OQ&utm_campaign=yelp_api_v3&utm_medium=api_v3_business_search&utm_source=Rcme9I_ALLj7Y_4HCWl0OQ", "review_count": 21, "categories": [{"alias": "bookstores", "title": "Bookstores"}, {"alias": "accessories", "title": "Accessories"}, {"alias": "menscloth", "title": "Men's Clothing"}], "rating": 3.0, "coordinates": {"latitude": 45.5117802736914, "longitude": -122.681646426567}, "transactions": [], "price": "$$", "location": {"address1": "1715 SW 5th Ave", "address2": "", "address3": "", "city": "Portland", "zip_code": "97201", "country": "US", "state": "OR", "display_address": ["1715 SW 5th Ave", "Portland, OR 97201"]}, "phone": "+15032262631", "display_phone": "(503) 226-2631", "distance": 1308.7041160411923}, {"id": "c_taCxJnd0MMLNbGTJ3LoQ", "alias": "chaparral-books-portland", "name": "Chaparral Books", "image_url": "https://s3-media4.fl.yelpcdn.com/bphoto/it924FQG-QlQJyNvh9gC9Q/o.jpg", "is_closed": false, "url": "https://www.yelp.com/biz/chaparral-books-portland?adjust_creative=Rcme9I_ALLj7Y_4HCWl0OQ&utm_campaign=yelp_api_v3&utm_medium=api_v3_business_search&utm_source=Rcme9I_ALLj7Y_4HCWl0OQ", "review_count": 4, "categories": [{"alias": "bookstores", "title": "Bookstores"}], "rating": 4.0, "coordinates": {"latitude": 45.50952, "longitude": -122.67871}, "transactions": [], "location": {"address1": "1975 SW 1st Ave", "address2": "Ste L", "address3": null, "city": "Portland", "zip_code": "97201", "country": "US", "state": "OR", "display_address": ["1975 SW 1st Ave", "Ste L", "Portland, OR 97201"]}, "phone": "+15038870823", "display_phone": "(503) 887-0823", "distance": 1674.4103273729968}, {"id": "GRbf7hL5hmqx9G0oMmKKKA", "alias": "passages-bookshop-portland", "name": "Passages Bookshop", "image_url": "https://s3-media2.fl.yelpcdn.com/bphoto/9co4hzdLZW5KxmpluYO1Vg/o.jpg", "is_closed": false, "url": "https://www.yelp.com/biz/passages-bookshop-portland?adjust_creative=Rcme9I_ALLj7Y_4HCWl0OQ&utm_campaign=yelp_api_v3&utm_medium=api_v3_business_search&utm_source=Rcme9I_ALLj7Y_4HCWl0OQ", "review_count": 2, "categories": [{"alias": "bookstores", "title": "Bookstores"}], "rating": 4.5, "coordinates": {"latitude": 45.5318924, "longitude": -122.6619512}, "transactions": [], "location": {"address1": "1223 NE Martin Luther King Jr Blvd", "address2": "", "address3": "", "city": "Portland", "zip_code": "97232", "country": "US", "state": "OR", "display_address": ["1223 NE Martin Luther King Jr Blvd", "Portland, OR 97232"]}, "phone": "+15033887665", "display_phone": "(503) 388-7665", "distance": 1771.4508402680485}, {"id": "2l97YSE_GBMGfug-BMdO6Q", "alias": "nor-west-scout-shop-portland", "name": "Nor' West Scout Shop", "image_url": "https://s3-media4.fl.yelpcdn.com/bphoto/fsoSdFjNmxVqnI7ifsWv5w/o.jpg", "is_closed": false, "url": "https://www.yelp.com/biz/nor-west-scout-shop-portland?adjust_creative=Rcme9I_ALLj7Y_4HCWl0OQ&utm_campaign=yelp_api_v3&utm_medium=api_v3_business_search&utm_source=Rcme9I_ALLj7Y_4HCWl0OQ", "review_count": 2, "categories": [{"alias": "sportgoods", "title": "Sporting Goods"}, {"alias": "hats", "title": "Hats"}, {"alias": "bookstores", "title": "Bookstores"}], "rating": 4.5, "coordinates": {"latitude": 45.5073509216309, "longitude": -122.678100585938}, "transactions": [], "price": "$", "location": {"address1": "2145 SW Naito Pkwy", "address2": "", "address3": "", "city": "Portland", "zip_code": "97201", "country": "US", "state": "OR", "display_address": ["2145 SW Naito Pkwy", "Portland, OR 97201"]}, "phone": "+15032435022", "display_phone": "(503) 243-5022", "distance": 1818.8082072813827}, {"id": "q6RP84LSqlIM5Y0T-LlCjw", "alias": "campus-bookstore-portland-2", "name": "Campus Bookstore", "image_url": "", "is_closed": false, "url": "https://www.yelp.com/biz/campus-bookstore-portland-2?adjust_creative=Rcme9I_ALLj7Y_4HCWl0OQ&utm_campaign=yelp_api_v3&utm_medium=api_v3_business_search&utm_source=Rcme9I_ALLj7Y_4HCWl0OQ", "review_count": 1, "categories": [{"alias": "bookstores", "title": "Bookstores"}], "rating": 4.0, "coordinates": {"latitude": 45.51327, "longitude": -122.68116}, "transactions": [], "location": {"address1": "1510 SW 6th Ave", "address2": "", "address3": "", "city": "Portland", "zip_code": "97204", "country": "US", "state": "OR", "display_address": ["1510 SW 6th Ave", "Portland, OR 97204"]}, "phone": "+15032229561", "display_phone": "(503) 222-9561", "distance": 1122.2940251711832}], "total": 12, "region": {"center": {"longitude": -122.68132221086628, "latitude": 45.52354755295152}}}