{"venues": [{"id": "5951e50660255e54f8f7b5c3", "name": "Powell's Books Rose Room", "location": {"address": "1005 W Burnside St", "crossStreet": "at NW. 10th Ave", "lat": 45.52348363167331, "lng": -122.68147097361489, "labeledLatLngs": [{"label": "display", "lat": 45.52348363167331, "lng": -122.68147097361489}], "distance": 13, "postalCode": "97209", "cc": "US", "neighborhood": "Pearl", "city": "Portland", "state": "OR", "country": "United States", "formattedAddress": ["1005 W Burnside St (at NW. 10th Ave)", "Portland, OR 97209", "United States"]}, "categories": [{"id": "4bf58dd8d48988d114951735", "name": "Bookstore", "pluralName": "Bookstores", "shortName": "Bookstore", "icon": {"prefix": "https://ss3.4sqi.net/img/categories_v2/shops/bookstore_", "suffix": ".png"}, "primary": true}], "referralId": "v-1615486675", "hasPerk": false}, {"id": "4a06431ff964a520dc721fe3", "name": "Powell's City of Books", "location": {"address": "1005 W Burnside St", "crossStreet": "at NW 10th Ave.", "lat": 45.523180490212425, "lng": -122.68137451786541, "labeledLatLngs": [{"label": "display", "lat": 45.523180490212425, "lng": -122.68137451786541}], "distance": 41, "postalCode": "97209", "cc": "US", "city": "Portland", "state": "OR", "country": "United States", "formattedAddress": ["1005 W Burnside St (at NW 10th Ave.)", "Portland, OR 97209", "United States"]}, "categories": [{"id": "4bf58dd8d48988d114951735", "name": "Bookstore", "pluralName": "Bookstores", "shortName": "Bookstore", "icon": {"prefix": "https://ss3.4sqi.net/img/categories_v2/shops/bookstore_", "suffix": ".png"}, "primary": true}], "referralId": "v-1615486675", "hasPerk": false}, {"id": "4c8560d147cc224bcaaaa09f", "name": "Powell's Books Purple Room", "location": {"address": "1005 W Burnside St", "crossStreet": "at NW. 10th Ave", "lat": 45.5234438158404, "lng": -122.68139625973623, "labeledLatLngs": [{"label": "display", "lat": 45.5234438158404, "lng": -122.68139625973623}], "distance": 12, "postalCode": "97209", "cc": "US", "city": "Portland", "state": "OR", "country": "United States", "formattedAddress": ["1005 W Burnside St (at NW. 10th Ave)", "Portland, OR 97209", "United States"]}, "categories": [{"id": "4bf58dd8d48988d114951735", "name": "Bookstore", "pluralName": "Bookstores", "shortName": "Bookstore", "icon": {"prefix": "https://ss3.4sqi.net/img/categories_v2/shops/bookstore_", "suffix": ".png"}, "primary": true}], "referralId": "v-1615486675", "hasPerk": false}, {"id": "5951e47558aa7f4f438f172b", "name": "Powell's Books Orange Room", "location": {"address": "1005 W Burnside St", "crossStreet": "at NW. 10th Ave", "lat": 45.523559571393065, "lng": -122.68188771710878, "labeledLatLngs": [{"label": "display", "lat": 45.523559571393065, "lng": -122.68188771710878}], "distance": 44, "postalCode": "97209", "cc": "US", "city": "Portland", "state": "OR", "country": "United States", "formattedAddress": ["1005 W Burnside St (at NW. 10th Ave)", "Portland, OR 97209", "United States"]}, "categories": [{"id": "4bf58dd8d48988d114951735", "name": "Bookstore", "pluralName": "Bookstores", "shortName": "Bookstore", "icon": {"prefix": "https://ss3.4sqi.net/img/categories_v2/shops/bookstore_", "suffix": ".png"}, "primary": true}], "referralId": "v-1615486675", "hasPerk": false}, {"id": "5951e3b89b04731d544432f2", "name": "Powell's Books Gold Room", "location": {"address": "1005 W Burnside St", "crossStreet": "at NW. 10th Ave", "lat": 45.52318158214965, "lng": -122.68141604840271, "labeledLatLngs": [{"label": "display", "lat": 45.52318158214965, "lng": -122.68141604840271}], "distance": 41, "postalCode": "97209", "cc": "US", "neighborhood": "Pearl", "city": "Portland", "state": "OR", "country": "United States", "formattedAddress": ["1005 W Burnside St (at NW. 10th Ave)", "Portland, OR 97209", "United States"]}, "categories": [{"id": "4bf58dd8d48988d114951735", "name": "Bookstore", "pluralName": "Bookstores", "shortName": "Bookstore", "icon": {"prefix": "https://ss3.4sqi.net/img/categories_v2/shops/bookstore_", "suffix": ".png"}, "primary": true}], "referralId": "v-1615486675", "hasPerk": false}, {"id": "59825bbedb1d816c645067df", "name": "Powell's Books Pearl Room", "location": {"address": "1005 W Burnside St", "crossStreet": "at NW. 10th Ave", "lat": 45.52352555719555, "lng": -122.68178225297, "labeledLatLngs": [{"label": "display", "lat": 45.52352555719555, "lng": -122.68178225297}], "distance": 35, "postalCode": "97209", "cc": "US", "city": "Portland", "state": "OR", "country": "United States", "formattedAddress": ["1005 W Burnside St (at NW. 10th Ave)", "Portland, OR 97209", "United States"]}, "categories": [{"id": "4bf58dd8d48988d114951735", "name": "Bookstore", "pluralName": "Bookstores", "shortName": "Bookstore", "icon": {"prefix": "https://ss3.4sqi.net/img/categories_v2/shops/bookstore_", "suffix": ".png"}, "primary": true}], "referralId": "v-1615486675", "hasPerk": false}, {"id": "5c746ec1234724002cc1f1fd", "name": "Powell\u2019s Books Coffee Room", "location": {"address": "1005 W Burnside St", "crossStreet": "at NW. 10th Ave", "lat": 45.52313, "lng": -122.681721, "labeledLatLngs": [{"label": "display", "lat": 45.52313, "lng": -122.681721}], "distance": 55, "postalCode": "97209", "cc": "US", "city": "Portland", "state": "OR", "country": "United States", "formattedAddress": ["1005 W Burnside St (at NW. 10th Ave)", "Portland, OR 97209", "United States"]}, "categories": [{"id": "4bf58dd8d48988d114951735", "name": "Bookstore", "pluralName": "Bookstores", "shortName": "Bookstore", "icon": {"prefix": "https://ss3.4sqi.net/img/categories_v2/shops/bookstore_", "suffix": ".png"}, "primary": true}], "referralId": "v-1615486675", "hasPerk": false}, {"id": "5951e5a2d7627e24af4d052a", "name": "Powell's Books Green Room", "location": {"address": "1005 W Burnside St", "crossStreet": "at NW. 10th Ave", "lat": 45.523284653933715, "lng": -122.68135783761461, "labeledLatLngs": [{"label": "display", "lat": 45.523284653933715, "lng": -122.68135783761461}], "distance": 29, "postalCode": "97209", "cc": "US", "city": "Portland", "state": "OR", "country": "United States", "formattedAddress": ["1005 W Burnside St (at NW. 10th Ave)", "Portland, OR 97209", "United States"]}, "categories": [{"id": "4bf58dd8d48988d114951735", "name": "Bookstore", "pluralName": "Bookstores", "shortName": "Bookstore", "icon": {"prefix": "https://ss3.4sqi.net/img/categories_v2/shops/bookstore_", "suffix": ".png"}, "primary": true}], "referralId": "v-1615486675", "hasPerk": false}, {"id": "5d5e132e0948450007d59218", "name": "Kinokuniya Bookstore", "location": {"address": "829 SW 9th Ave", "lat": 45.518676, "lng": -122.681846, "labeledLatLngs": [{"label": "display", "lat": 45.518676, "lng": -122.681846}], "distance": 543, "postalCode": "97205", "cc": "US", "city": "Portland", "state": "OR", "country": "United States", "formattedAddress": ["829 SW 9th Ave", "Portland, OR 97205", "United States"]}, "categories": [{"id": "4bf58dd8d48988d114951735", "name": "Bookstore", "pluralName": "Bookstores", "shortName": "Bookstore", "icon": {"prefix": "https://ss3.4sqi.net/img/categories_v2/shops/bookstore_", "suffix": ".png"}, "primary": true}], "referralId": "v-1615486675", "hasPerk": false}, {"id": "59825c6f0123583235d31e48", "name": "Powell's Books Red Room", "location": {"address": "1005 W Burnside St", "crossStreet": "at NW. 10th Ave", "lat": 45.523179, "lng": -122.681484, "labeledLatLngs": [{"label": "display", "lat": 45.523179, "lng": -122.681484}], "distance": 42, "postalCode": "97209", "cc": "US", "city": "Portland", "state": "OR", "country": "United States", "formattedAddress": ["1005 W Burnside St (at NW. 10th Ave)", "Portland, OR 97209", "United States"]}, "categories": [{"id": "4bf58dd8d48988d114951735", "name": "Bookstore", "pluralName": "Bookstores", "shortName": "Bookstore", "icon": {"prefix": "https://ss3.4sqi.net/img/categories_v2/shops/bookstore_", "suffix": ".png"}, "primary": true}], "referralId": "v-1615486675", "hasPerk": false}, {"id": "5956a90ac365882ea49433d6", "name": "Powell's Books Rare Book Room", "location": {"address": "1005 W Burnside St", "crossStreet": "at NW. 10th Ave", "lat": 45.52355196758245, "lng": -122.68175524213811, "labeledLatLngs": [{"label": "display", "lat": 45.52355196758245, "lng": -122.68175524213811}], "distance": 33, "postalCode": "97209", "cc": "US", "city": "Portland", "state": "OR", "country": "United States", "formattedAddress": ["1005 W Burnside St (at NW. 10th Ave)", "Portland, OR 97209", "United States"]}, "categories": [{"id": "4bf58dd8d48988d114951735", "name": "Bookstore", "pluralName": "Bookstores", "shortName": "Bookstore", "icon": {"prefix": "https://ss3.4sqi.net/img/categories_v2/shops/bookstore_", "suffix": ".png"}, "primary": true}], "referralId": "v-1615486675", "hasPerk": false}, {"id": "5951e3085315937ab52f0cae", "name": "Powell's Books Blue Room", "location": {"address": "1005 W Burnside St", "crossStreet": "at NW. 10th Ave", "lat": 45.52314, "lng": -122.681567, "labeledLatLngs": [{"label": "display", "lat": 45.52314, "lng": -122.681567}], "distance": 49, "postalCode": "97209", "cc": "US", "neighborhood": "Pearl", "city": "Portland", "state": "OR", "country": "United States", "formattedAddress": ["1005 W Burnside St (at NW. 10th Ave)", "Portland, OR 97209", "United States"]}, "categories": [{"id": "4bf58dd8d48988d114951735", "name": "Bookstore", "pluralName": "Bookstores", "shortName": "Bookstore", "icon": {"prefix": "https://ss3.4sqi.net/img/categories_v2/shops/bookstore_", "suffix": ".png"}, "primary": true}], "referralId": "v-1615486675", "hasPerk": false}, {"id": "4ad3c500f964a52039e620e3", "name": "Title Wave Used Bookstore", "location": {"address": "216 NE Knott St", "crossStreet": "btw NE Rodney & NE MLK", "lat": 45.541812967789966, "lng": -122.66312854582699, "labeledLatLngs": [{"label": "display", "lat": 45.541812967789966, "lng": -122.66312854582699}, {"label": "entrance", "lat": 45.541739, "lng": -122.663114}], "distance": 2479, "postalCode": "97212", "cc": "US", "city": "Portland", "state": "OR", "country": "United States", "formattedAddress": ["216 NE Knott St (btw NE Rodney & NE MLK)", "Portland, OR 97212", "United States"]}, "categories": [{"id": "4bf58dd8d48988d114951735", "name": "Bookstore", "pluralName": "Bookstores", "shortName": "Bookstore", "icon": {"prefix": "https://ss3.4sqi.net/img/categories_v2/shops/bookstore_", "suffix": ".png"}, "primary": true}], "referralId": "v-1615486675", "hasPerk": false}, {"id": "4f70fab9e4b030300bff3f85", "name": "Old Oregon Book Store", "location": {"address": "1017 SW Morrison St", "crossStreet": "10th", "lat": 45.520259857177734, "lng": -122.68234252929688, "labeledLatLngs": [{"label": "display", "lat": 45.520259857177734, "lng": -122.68234252929688}], "distance": 374, "postalCode": "97205", "cc": "US", "city": "Portland", "state": "OR", "country": "United States", "formattedAddress": ["1017 SW Morrison St (10th)", "Portland, OR 97205", "United States"]}, "categories": [{"id": "4bf58dd8d48988d114951735", "name": "Bookstore", "pluralName": "Bookstores", "shortName": "Bookstore", "icon": {"prefix": "https://ss3.4sqi.net/img/categories_v2/shops/bookstore_", "suffix": ".png"}, "primary": true}], "referralId": "v-1615486675", "hasPerk": false}, {"id": "4b368e62f964a520e53725e3", "name": "Daedalus Books", "location": {"address": "2074 NW Flanders St", "lat": 45.525374, "lng": -122.694028, "labeledLatLngs": [{"label": "display", "lat": 45.525374, "lng": -122.694028}, {"label": "entrance", "lat": 45.525519, "lng": -122.694186}], "distance": 1011, "postalCode": "97209", "cc": "US", "city": "Portland", "state": "OR", "country": "United States", "formattedAddress": ["2074 NW Flanders St", "Portland, OR 97209", "United States"]}, "categories": [{"id": "4bf58dd8d48988d114951735", "name": "Bookstore", "pluralName": "Bookstores", "shortName": "Bookstore", "icon": {"prefix": "https://ss3.4sqi.net/img/categories_v2/shops/bookstore_", "suffix": ".png"}, "primary": true}], "venuePage": {"id": "1359513357"}, "referralId": "v-1615486675", "hasPerk": false}, {"id": "5951e2914f0e58127f24ae7c", "name": "Powell's Books Poetry Section", "location": {"address": "1005 W Burnside St", "crossStreet": "at NW. 10th Ave", "lat": 45.523117, "lng": -122.68147, "labeledLatLngs": [{"label": "display", "lat": 45.523117, "lng": -122.68147}], "distance": 49, "postalCode": "97209", "cc": "US", "city": "Portland", "state": "OR", "country": "United States", "formattedAddress": ["1005 W Burnside St (at NW. 10th Ave)", "Portland, OR 97209", "United States"]}, "categories": [{"id": "4bf58dd8d48988d114951735", "name": "Bookstore", "pluralName": "Bookstores", "shortName": "Bookstore", "icon": {"prefix": "https://ss3.4sqi.net/img/categories_v2/shops/bookstore_", "suffix": ".png"}, "primary": true}], "referralId": "v-1615486675", "hasPerk": false}, {"id": "4f10b7f4e4b067f66ed5cb02", "name": "Mother Foucault's Books", "location": {"address": "740 SE Morrison St", "lat": 45.517469, "lng": -122.66005200000001, "labeledLatLngs": [{"label": "display", "lat": 45.517469, "lng": -122.66005200000001}, {"label": "entrance", "lat": 45.517345, "lng": -122.660076}], "distance": 1791, "postalCode": "97214", "cc": "US", "city": "Portland", "state": "OR", "country": "United States", "formattedAddress": ["740 SE Morrison St", "Portland, OR 97214", "United States"]}, "categories": [{"id": "4bf58dd8d48988d114951735", "name": "Bookstore", "pluralName": "Bookstores", "shortName": "Bookstore", "icon": {"prefix": "https://ss3.4sqi.net/img/categories_v2/shops/bookstore_", "suffix": ".png"}, "primary": true}], "referralId": "v-1615486675", "hasPerk": false}, {"id": "501972f3e4b0425069ff94ca", "name": "Espresso Book Machine", "location": {"address": "Powell's Bookstore", "lat": 45.523842, "lng": -122.68139, "labeledLatLngs": [{"label": "display", "lat": 45.523842, "lng": -122.68139}], "distance": 33, "postalCode": "97209", "cc": "US", "city": "Portland", "state": "OR", "country": "United States", "formattedAddress": ["Powell's Bookstore", "Portland, OR 97209", "United States"]}, "categories": [{"id": "4bf58dd8d48988d114951735", "name": "Bookstore", "pluralName": "Bookstores", "shortName": "Bookstore", "icon": {"prefix": "https://ss3.4sqi.net/img/categories_v2/shops/bookstore_", "suffix": ".png"}, "primary": true}], "referralId": "v-1615486675", "hasPerk": false}, {"id": "589f7ac472714f7d35788e02", "name": "Passages Bookshop", "location": {"address": "1223 NE M L King Blvd", "crossStreet": "btw NE Wasco & Multnomah", "lat": 45.531864, "lng": -122.662219, "labeledLatLngs": [{"label": "display", "lat": 45.531864, "lng": -122.662219}, {"label": "entrance", "lat": 45.531985, "lng": -122.661834}], "distance": 1754, "postalCode": "97232", "cc": "US", "city": "Portland", "state": "OR", "country": "United States", "formattedAddress": ["1223 NE M L King Blvd (btw NE Wasco & Multnomah)", "Portland, OR 97232", "United States"]}, "categories": [{"id": "4bf58dd8d48988d114951735", "name": "Bookstore", "pluralName": "Bookstores", "shortName": "Bookstore", "icon": {"prefix": "https://ss3.4sqi.net/img/categories_v2/shops/bookstore_", "suffix": ".png"}, "primary": true}], "referralId": "v-1615486675", "hasPerk": false}, {"id": "4ff46993e4b09751a655ef99", "name": "harmony Market Place", "location": {"lat": 45.52983447281391, "lng": -122.66249745716708, "labeledLatLngs": [{"label": "display", "lat": 45.52983447281391, "lng": -122.66249745716708}], "distance": 1626, "postalCode": "97232", "cc": "US", "city": "Portland", "state": "OR", "country": "United States", "formattedAddress": ["Portland, OR 97232", "United States"]}, "categories": [{"id": "4bf58dd8d48988d114951735", "name": "Bookstore", "pluralName": "Bookstores", "shortName": "Bookstore", "icon": {"prefix": "https://ss3.4sqi.net/img/categories_v2/shops/bookstore_", "suffix": ".png"}, "primary": true}], "referralId": "v-1615486675", "hasPerk": false}, {"id": "4c856217d8086dcbd5939152", "name": "Red Room", "location": {"address": "Powell's Bookstore", "lat": 45.523627, "lng": -122.682012, "labeledLatLngs": [{"label": "display", "lat": 45.523627, "lng": -122.682012}], "distance": 54, "postalCode": "97209", "cc": "US", "city": "Portland", "state": "OR", "country": "United States", "formattedAddress": ["Powell's Bookstore", "Portland, OR 97209", "United States"]}, "categories": [{"id": "4bf58dd8d48988d114951735", "name": "Bookstore", "pluralName": "Bookstores", "shortName": "Bookstore", "icon": {"prefix": "https://ss3.4sqi.net/img/categories_v2/shops/bookstore_", "suffix": ".png"}, "primary": true}], "referralId": "v-1615486675", "hasPerk": false}, {"id": "5c2004f82db4a9002ced26b3", "name": "Kinokuniya Popup", "location": {"lat": 45.52196, "lng": -122.68122, "labeledLatLngs": [{"label": "display", "lat": 45.52196, "lng": -122.68122}], "distance": 176, "postalCode": "97205", "cc": "US", "city": "Portland", "state": "OR", "country": "United States", "formattedAddress": ["Portland, OR 97205", "United States"]}, "categories": [{"id": "4bf58dd8d48988d114951735", "name": "Bookstore", "pluralName": "Bookstores", "shortName": "Bookstore", "icon": {"prefix": "https://ss3.4sqi.net/img/categories_v2/shops/bookstore_", "suffix": ".png"}, "primary": true}], "referralId": "v-1615486675", "hasPerk": false}, {"id": "4b8b12dbf964a5208e9132e3", "name": "New Renaissance Bookstore", "location": {"address": "1338 NW 23rd Ave", "lat": 45.53245947019511, "lng": -122.69856456232122, "labeledLatLngs": [{"label": "display", "lat": 45.53245947019511, "lng": -122.69856456232122}, {"label": "entrance", "lat": 45.532253, "lng": -122.698584}], "distance": 1671, "postalCode": "97210", "cc": "US", "city": "Portland", "state": "OR", "country": "United States", "formattedAddress": ["1338 NW 23rd Ave", "Portland, OR 97210", "United States"]}, "categories": [{"id": "4bf58dd8d48988d114951735", "name": "Bookstore", "pluralName": "Bookstores", "shortName": "Bookstore", "icon": {"prefix": "https://ss3.4sqi.net/img/categories_v2/shops/bookstore_", "suffix": ".png"}, "primary": true}], "referralId": "v-1615486675", "hasPerk": false}, {"id": "4b64a243f964a5200cc42ae3", "name": "Cameron's Books", "location": {"address": "336 SW 3rd Ave", "crossStreet": "at SW Stark St", "lat": 45.52028031266043, "lng": -122.6745899816986, "labeledLatLngs": [{"label": "display", "lat": 45.52028031266043, "lng": -122.6745899816986}, {"label": "entrance", "lat": 45.520343, "lng": -122.674257}], "distance": 638, "postalCode": "97204", "cc": "US", "city": "Portland", "state": "OR", "country": "United States", "formattedAddress": ["336 SW 3rd Ave (at SW Stark St)", "Portland, OR 97204", "United States"]}, "categories": [{"id": "4bf58dd8d48988d114951735", "name": "Bookstore", "pluralName": "Bookstores", "shortName": "Bookstore", "icon": {"prefix": "https://ss3.4sqi.net/img/categories_v2/shops/bookstore_", "suffix": ".png"}, "primary": true}], "referralId": "v-1615486675", "hasPerk": false}, {"id": "4c0998a57e3fc9286a4cf282", "name": "Microcosm Publishing", "location": {"address": "636 SE 11th Ave", "crossStreet": "alder", "lat": 45.51803583125411, "lng": -122.65450387589989, "labeledLatLngs": [{"label": "display", "lat": 45.51803583125411, "lng": -122.65450387589989}], "distance": 2179, "postalCode": "97214", "cc": "US", "city": "Portland", "state": "OR", "country": "United States", "formattedAddress": ["636 SE 11th Ave (alder)", "Portland, OR 97214", "United States"]}, "categories": [{"id": "4bf58dd8d48988d114951735", "name": "Bookstore", "pluralName": "Bookstores", "shortName": "Bookstore", "icon": {"prefix": "https://ss3.4sqi.net/img/categories_v2/shops/bookstore_", "suffix": ".png"}, "primary": true}], "referralId": "v-1615486675", "hasPerk": false}, {"id": "594d64a8d1a40209d0259331", "name": "Chaparral Books", "location": {"lat": 45.509281, "lng": -122.679401, "labeledLatLngs": [{"label": "display", "lat": 45.509281, "lng": -122.679401}], "distance": 1595, "postalCode": "97201", "cc": "US", "city": "Portland", "state": "OR", "country": "United States", "formattedAddress": ["Portland, OR 97201", "United States"]}, "categories": [{"id": "4bf58dd8d48988d114951735", "name": "Bookstore", "pluralName": "Bookstores", "shortName": "Bookstore", "icon": {"prefix": "https://ss3.4sqi.net/img/categories_v2/shops/bookstore_", "suffix": ".png"}, "primary": true}], "referralId": "v-1615486675", "hasPerk": false}, {"id": "4dca04ced16495ca5ae1727c", "name": "Portal Games", "location": {"address": "1224 SW Broadway", "lat": 45.515627, "lng": -122.681257, "labeledLatLngs": [{"label": "display", "lat": 45.515627, "lng": -122.681257}], "distance": 881, "postalCode": "97205", "cc": "US", "city": "Portland", "state": "OR", "country": "United States", "formattedAddress": ["1224 SW Broadway", "Portland, OR 97205", "United States"]}, "categories": [{"id": "4bf58dd8d48988d18d941735", "name": "Gaming Cafe", "pluralName": "Gaming Cafes", "shortName": "Gaming Cafe", "icon": {"prefix": "https://ss3.4sqi.net/img/categories_v2/shops/gamingcafe_", "suffix": ".png"}, "primary": true}], "referralId": "v-1615486675", "hasPerk": false}, {"id": "4b5bd1b9f964a520011829e3", "name": "Laughing Horse", "location": {"address": "1600 NE 10th", "crossStreet": "10th & Burnside", "lat": 45.523182, "lng": -122.65562653541565, "labeledLatLngs": [{"label": "display", "lat": 45.523182, "lng": -122.65562653541565}], "distance": 2004, "postalCode": "97232", "cc": "US", "city": "Portland", "state": "OR", "country": "United States", "formattedAddress": ["1600 NE 10th (10th & Burnside)", "Portland, OR 97232", "United States"]}, "categories": [{"id": "4bf58dd8d48988d114951735", "name": "Bookstore", "pluralName": "Bookstores", "shortName": "Bookstore", "icon": {"prefix": "https://ss3.4sqi.net/img/categories_v2/shops/bookstore_", "suffix": ".png"}, "primary": true}], "referralId": "v-1615486675", "hasPerk": false}, {"id": "4eb809bcc2eef09a0742da3c", "name": "National College of Natural Medicine Vis & Qi Bookstore", "location": {"address": "049 SW Porter St", "lat": 45.50195933942315, "lng": -122.67631441354752, "labeledLatLngs": [{"label": "display", "lat": 45.50195933942315, "lng": -122.67631441354752}], "distance": 2434, "postalCode": "97201", "cc": "US", "city": "Portland", "state": "OR", "country": "United States", "formattedAddress": ["049 SW Porter St", "Portland, OR 97201", "United States"]}, "categories": [{"id": "4bf58dd8d48988d114951735", "name": "Bookstore", "pluralName": "Bookstores", "shortName": "Bookstore", "icon": {"prefix": "https://ss3.4sqi.net/img/categories_v2/shops/bookstore_", "suffix": ".png"}, "primary": true}], "referralId": "v-1615486675", "hasPerk": false}, {"id": "50f5499ee4b0ebcba4676f27", "name": "Women and Women First", "location": {"lat": 45.520879, "lng": -122.679641, "labeledLatLngs": [{"label": "display", "lat": 45.520879, "lng": -122.679641}], "distance": 324, "postalCode": "97205", "cc": "US", "city": "Portland", "state": "OR", "country": "United States", "formattedAddress": ["Portland, OR 97205", "United States"]}, "categories": [{"id": "4bf58dd8d48988d114951735", "name": "Bookstore", "pluralName": "Bookstores", "shortName": "Bookstore", "icon": {"prefix": "https://ss3.4sqi.net/img/categories_v2/shops/bookstore_", "suffix": ".png"}, "primary": true}], "referralId": "v-1615486675", "hasPerk": false}, {"id": "54a46fad498e16f50f7dcc6c", "name": "Trinity Episcopal Bookstore", "location": {"lat": 45.52458806454069, "lng": -122.69067763328661, "labeledLatLngs": [{"label": "display", "lat": 45.52458806454069, "lng": -122.69067763328661}], "distance": 738, "cc": "US", "city": "Portland", "state": "OR", "country": "United States", "formattedAddress": ["Portland, OR", "United States"]}, "categories": [{"id": "4bf58dd8d48988d114951735", "name": "Bookstore", "pluralName": "Bookstores", "shortName": "Bookstore", "icon": {"prefix": "https://ss3.4sqi.net/img/categories_v2/shops/bookstore_", "suffix": ".png"}, "primary": true}], "referralId": "v-1615486675", "hasPerk": false}, {"id": "4c2cbfea77cfe21e8c7ab6f1", "name": "Publication Studio", "location": {"address": "717 SW Ankeny St", "crossStreet": "Broadway", "lat": 45.522743, "lng": -122.67809199999999, "labeledLatLngs": [{"label": "display", "lat": 45.522743, "lng": -122.67809199999999}, {"label": "entrance", "lat": 45.522668, "lng": -122.67824}], "distance": 267, "postalCode": "97205", "cc": "US", "city": "Portland", "state": "OR", "country": "United States", "formattedAddress": ["717 SW Ankeny St (Broadway)", "Portland, OR 97205", "United States"]}, "categories": [{"id": "4bf58dd8d48988d114951735", "name": "Bookstore", "pluralName": "Bookstores", "shortName": "Bookstore", "icon": {"prefix": "https://ss3.4sqi.net/img/categories_v2/shops/bookstore_", "suffix": ".png"}, "primary": true}], "referralId": "v-1615486675", "hasPerk": false}, {"id": "4f00dcbe02d580f8f0d506f9", "name": "Dollar Book Fair", "location": {"address": "Pioneer Place", "lat": 45.518432741338124, "lng": -122.67695167459112, "labeledLatLngs": [{"label": "display", "lat": 45.518432741338124, "lng": -122.67695167459112}], "distance": 663, "postalCode": "97229", "cc": "US", "city": "Portland", "state": "OR", "country": "United States", "formattedAddress": ["Pioneer Place", "Portland, OR 97229", "United States"]}, "categories": [{"id": "4bf58dd8d48988d114951735", "name": "Bookstore", "pluralName": "Bookstores", "shortName": "Bookstore", "icon": {"prefix": "https://ss3.4sqi.net/img/categories_v2/shops/bookstore_", "suffix": ".png"}, "primary": true}], "referralId": "v-1615486675", "hasPerk": false}], "confident": false}